{"version": 0.6, "generator": "Overpass API 0.7.61.5 4133829e", "osm3s": {"timestamp_osm_base": "2024-02-21T13:10:01Z", "copyright": "The data included in this document is from www.openstreetmap.org. The data is made available under ODbL."}, "elements": [{"type": "node", "id": 1254190626, "lat": 17.6341992, "lon": 78.4857529, "tags": {"alt_name": "Medchal", "amenity": "bus_station", "building": "yes", "bus": "yes", "int_name": "Medchal", "name": "Medchal", "old_name": "Medchal", "public_transport": "station"}}, {"type": "node", "id": 6539424633, "lat": 17.6364586, "lon": 78.4751983, "tags": {"addr:district": "Rangareddy", "addr:full": "Medchal, Near Ralyway station", "addr:postcode": "500101", "addr:state": "Telangana", "addr:street": "Indra nagar", "addr:subdistrict": "Medchal", "amenity": "clinic", "fixme": "Please verify the accurate position of the hospital/health care centre as I have mapped the facility based on the address provided in Open Government data", "healthcare": "centre", "name": "Community Health Centre, Medchal", "source": "OpenGovernmentData"}}, {"type": "node", "id": 6811749000, "lat": 17.6299506, "lon": 78.4847889, "tags": {"addr:district": "Medchal Malkajgiri", "addr:full": "Beside Ambedkar Statue, Secunderabad", "addr:postcode": "501401", "addr:state": "Telangana", "amenity": "clinic", "contact:mobile": "9494043231", "name": "Sri Anagha Children's Clinic", "source": "OpenGovernmentData"}}, {"type": "node", "id": 8354101478, "lat": 17.6177257, "lon": 78.4863431, "tags": {"addr:city": "Medchal", "addr:housenumber": "SY No 421", "addr:postcode": "501401", "addr:street": "Medchal CheckPost", "amenity": "restaurant", "cuisine": "arabic;middle_eastern;hyderabadi;indian;chinese", "diet:non-vegetarian": "yes", "diet:vegetarian": "yes", "name": "Baith Al Mandi Medchal", "name:te": "\u0c2c\u0c3f\u0c24\u0c4d \u0c06\u0c32\u0c4d \u0c2e\u0c02\u0c26\u0c3f \u0c2e\u0c47\u0c21\u0c4d\u0c1a\u0c32\u0c4d", "opening_hours": "24/7", "phone": "+91 70933 01043"}}, {"type": "node", "id": 9961119778, "lat": 17.6177429, "lon": 78.4890257, "tags": {"addr:city": "medchal", "addr:postcode": "501401", "amenity": "place_of_worship", "name": "Ek minar masjid", "religion": "muslim"}}, {"type": "node", "id": 9961163268, "lat": 17.6235989, "lon": 78.4838407, "tags": {"amenity": "place_of_worship", "religion": "hindu"}}, {"type": "node", "id": 9961163269, "lat": 17.6230826, "lon": 78.4839951, "tags": {"amenity": "place_of_worship", "religion": "hindu"}}, {"type": "node", "id": 9961385033, "lat": 17.6176217, "lon": 78.4855204, "tags": {"addr:city": "Medchal, Secundrebad", "addr:postcode": "501401", "amenity": "restaurant", "name": "A1 Green Bawarchi Restaurant"}}, {"type": "node", "id": 10983441641, "lat": 17.6327751, "lon": 78.4828211, "tags": {"addr:district": "Medchal Malkajgiri", "addr:place": "Near Market Old Hospital", "addr:state": "Telangana", "addr:street": "lig 144 housing board colony,medchal,rangareddy districttelangana state", "addr:subdistrict": "Medchal", "amenity": "health_post", "healthcare": "yes", "name": "SubCentre Medchal -II", "operational_status": "operational", "operator:type": "government", "source": "OpenDataTelangana"}}, {"type": "node", "id": 11034564344, "lat": 17.6430354, "lon": 78.4918736, "tags": {"addr:district": "Medchal Malkajgiri", "addr:place": "Kaithlapur,Medchal", "addr:state": "Telangana", "addr:street": "Kaithlapur", "amenity": "health_post", "healthcare": "yes", "name": "Madanna CH, Kaithlapur (Basthi Dawakhana)", "operational_status": "operational", "operator:type": "government"}}]}