{"version": 0.6, "generator": "Overpass API 0.7.61.5 4133829e", "osm3s": {"timestamp_osm_base": "2024-02-21T12:53:45Z", "copyright": "The data included in this document is from www.openstreetmap.org. The data is made available under ODbL."}, "elements": [{"type": "node", "id": 5732474087, "lat": 17.3363873, "lon": 78.2896976, "tags": {"amenity": "restaurant", "name": "Canteen"}}, {"type": "node", "id": 5732474105, "lat": 17.336432, "lon": 78.2900282, "tags": {"amenity": "parking"}}, {"type": "node", "id": 5732474110, "lat": 17.3361596, "lon": 78.2901619, "tags": {"amenity": "animal_shelter", "name": "Dog Shelter"}}, {"type": "node", "id": 5732474111, "lat": 17.3361346, "lon": 78.2896005, "tags": {"amenity": "animal_shelter", "name": "Rabbits,Ducks's Place"}}, {"type": "node", "id": 5732474113, "lat": 17.3355959, "lon": 78.2891923, "tags": {"amenity": "theatre", "name": "Amphi Theatre"}}, {"type": "node", "id": 5732945789, "lat": 17.3367874, "lon": 78.2886111, "tags": {"amenity": "college"}}, {"type": "node", "id": 5733146965, "lat": 17.336413, "lon": 78.2895935, "tags": {"amenity": "cafe"}}, {"type": "node", "id": 5733146966, "lat": 17.336375, "lon": 78.289547, "tags": {"amenity": "fast_food", "cuisine": "grape", "name": "Jamba Juice"}}, {"type": "node", "id": 5733146967, "lat": 17.3356551, "lon": 78.2899242, "tags": {"amenity": "fountain", "name": "Water For Pets"}}, {"type": "node", "id": 5733146969, "lat": 17.3359294, "lon": 78.289554, "tags": {"amenity": "fountain"}}, {"type": "node", "id": 5737142113, "lat": 17.3372787, "lon": 78.2880108, "tags": {"amenity": "parking"}}, {"type": "node", "id": 6544448284, "lat": 17.3270155, "lon": 78.2705491, "tags": {"addr:district": "Rangareddy", "addr:place": "Moinabad", "addr:state": "Telangana", "addr:street": "AMRIGUDA ROAD", "addr:subdistrict": "Moinabad", "amenity": "clinic", "healthcare": "clinic", "name": "Primary Health Centre, Moinabad", "operational_status": "operational", "operator:type": "government", "source": "OpenDataTelangana"}}, {"type": "node", "id": 6561127813, "lat": 17.3159809, "lon": 78.2563004}, {"type": "node", "id": 6561127814, "lat": 17.315374, "lon": 78.2562467}, {"type": "node", "id": 6561127815, "lat": 17.3153892, "lon": 78.2560578}, {"type": "node", "id": 6561127816, "lat": 17.3159961, "lon": 78.2561115}, {"type": "node", "id": 7244020258, "lat": 17.3261069, "lon": 78.2758696, "tags": {"amenity": "place_of_worship", "denomination": "sunni", "name": "Jama Masjid", "religion": "muslim"}}, {"type": "node", "id": 7244020264, "lat": 17.3263062, "lon": 78.2741321}, {"type": "node", "id": 7244020265, "lat": 17.3263059, "lon": 78.2742152}, {"type": "node", "id": 7244020266, "lat": 17.3261893, "lon": 78.2742149}, {"type": "node", "id": 7244020267, "lat": 17.3261895, "lon": 78.2741318}, {"type": "node", "id": 7244020270, "lat": 17.329331, "lon": 78.273393, "tags": {"amenity": "bank", "brand": "Andhra Bank", "brand:wikidata": "Q2003476", "brand:wikipedia": "en:Andhra Bank", "name": "Andhra Bank"}}, {"type": "node", "id": 7244020271, "lat": 17.328374, "lon": 78.272912, "tags": {"amenity": "bank", "brand": "State Bank of India", "brand:wikidata": "Q1340361", "brand:wikipedia": "en:State Bank of India", "name": "State Bank of India"}}, {"type": "node", "id": 7244020892, "lat": 17.3263516, "lon": 78.2750511, "tags": {"amenity": "hospital", "healthcare": "hospital", "name": "Yousuf Memorial Hospital"}}, {"type": "node", "id": 7244119611, "lat": 17.3292393, "lon": 78.2732964, "tags": {"amenity": "restaurant", "name": "Venkateshwara Tiffin Center"}}, {"type": "node", "id": 7244119613, "lat": 17.3290067, "lon": 78.2730863, "tags": {"amenity": "clinic", "healthcare": "clinic"}}, {"type": "node", "id": 7244140750, "lat": 17.3292328, "lon": 78.2732998, "tags": {"amenity": "restaurant", "name": "Venkateshwara Tiffin Center"}}, {"type": "node", "id": 7244193691, "lat": 17.3297785, "lon": 78.2804092, "tags": {"amenity": "fuel", "brand": "Bharat Petroleum", "brand:wikidata": "Q854826", "brand:wikipedia": "en:Bharat Petroleum", "name": "Bharat Petroleum", "operator": "Sumeet Filling Station"}}, {"type": "node", "id": 7244193692, "lat": 17.3303401, "lon": 78.2759575, "tags": {"amenity": "fuel", "brand": "Indian Oil", "brand:wikidata": "Q1289348", "brand:wikipedia": "en:Indian Oil Corporation", "name": "Indian Oil"}}, {"type": "node", "id": 7244193693, "lat": 17.3288565, "lon": 78.2753482, "tags": {"amenity": "place_of_worship", "name": "Methodist Church", "religion": "christian"}}, {"type": "node", "id": 7244193694, "lat": 17.3284265, "lon": 78.2740634, "tags": {"amenity": "place_of_worship", "name": "Lord Shiva Temple", "religion": "hindu"}}, {"type": "node", "id": 8849653226, "lat": 17.3356426, "lon": 78.289409, "tags": {"amenity": "college", "name": "KG Reddy Engineering College", "operator:type": "private"}}, {"type": "node", "id": 11018944037, "lat": 17.3260771, "lon": 78.2751565, "tags": {"addr:district": "Rangareddy", "addr:place": "Mothukupally Village", "addr:state": "Telangana", "addr:street": "Mothukupally", "addr:subdistrict": "Moinabad", "amenity": "doctors", "healthcare": "doctor", "name": "Government Ayurveda Dispenary,Moinadad (NRHM)", "operational_status": "operational", "operator:type": "government", "source": "OpenDataTelangana"}}, {"type": "node", "id": 11018958652, "lat": 17.3380496, "lon": 78.2569845, "tags": {"addr:district": "Rangareddy", "addr:place": "Peddamangalaram", "addr:state": "Telangana", "addr:street": "GP ROAD", "addr:subdistrict": "Moinabad", "amenity": "health_post", "healthcare": "yes", "name": "SubCentre, Pedammagalaram", "operational_status": "operational", "operator:type": "government", "source": "OpenDataTelangana"}}, {"type": "way", "id": 698703041, "nodes": [6561127816, 6561127813, 6561127814, 6561127815, 6561127816], "tags": {"amenity": "hospital", "building": "yes", "name": "Ayaan Institute of Medical Sciences"}}, {"type": "way", "id": 776400461, "nodes": [7244020264, 7244020265, 7244020266, 7244020267, 7244020264], "tags": {"amenity": "place_of_worship", "building": "yes", "denomination": "shia", "name": "Aashoor Khana", "religion": "muslim"}}]}