{"version": 0.6, "generator": "Overpass API 0.7.61.5 4133829e", "osm3s": {"timestamp_osm_base": "2024-02-21T13:18:15Z", "copyright": "The data included in this document is from www.openstreetmap.org. The data is made available under ODbL."}, "elements": [{"type": "node", "id": 6544274076, "lat": 17.5225875, "lon": 78.6589685, "tags": {"addr:district": "Medchal Malkajgiri", "addr:place": "Keesara", "addr:state": "Telangana", "addr:street": "Police Station Road", "addr:subdistrict": "Medchal", "amenity": "doctors", "healthcare": "doctor", "name": "Government Ayurveda Dispensary, Keesara (NRHM)", "operational_status": "operational", "operator:type": "government", "source": "OpenDataTelangana"}}, {"type": "node", "id": 10277935438, "lat": 17.521384, "lon": 78.6677315, "tags": {"amenity": "school"}}, {"type": "node", "id": 10281651801, "lat": 17.5206293, "lon": 78.6665733}, {"type": "node", "id": 10281651802, "lat": 17.5206196, "lon": 78.6666733}, {"type": "node", "id": 10281651803, "lat": 17.5205366, "lon": 78.6666644}, {"type": "node", "id": 10281651804, "lat": 17.5205464, "lon": 78.6665644}, {"type": "node", "id": 11016127565, "lat": 17.5231144, "lon": 78.6585917, "tags": {"addr:district": "Medchal Malkajgiri", "addr:place": "Keesara", "addr:state": "Telangana", "addr:street": "Near Police station", "addr:subdistrict": "Keesara", "amenity": "clinic", "healthcare": "clinic", "name": "Primary Health Centre, Keesara", "operational_status": "operational", "operator:type": "government", "source": "OpenDataTelangana"}}, {"type": "node", "id": 11581575627, "lat": 17.5227284, "lon": 78.6715277, "tags": {"amenity": "fuel", "brand": "Hindustan Petroleum", "brand:wikidata": "Q1619375", "name": "HP", "official_name": "Hindustan Petroleum"}}, {"type": "way", "id": 1124348911, "nodes": [10281651801, 10281651802, 10281651803, 10281651804, 10281651801], "tags": {"amenity": "veterinary", "building": "yes"}}]}