{"version": 0.6, "generator": "Overpass API 0.7.61.5 4133829e", "osm3s": {"timestamp_osm_base": "2024-02-21T13:07:00Z", "copyright": "The data included in this document is from www.openstreetmap.org. The data is made available under ODbL."}, "elements": [{"type": "node", "id": 767999210, "lat": 17.260048, "lon": 78.386917, "tags": {"amenity": "restaurant", "name": "Hyderabad House", "name:te": "\u0c39\u0c48\u0c26\u0c30\u0c3e\u0c2c\u0c3e\u0c26\u0c4d \u0c39\u0c4c\u0c38\u0c4d"}}, {"type": "node", "id": 3668040239, "lat": 17.271785, "lon": 78.3971288, "tags": {"amenity": "fuel", "brand": "Indian Oil"}}, {"type": "node", "id": 6532251947, "lat": 17.2650146, "lon": 78.3913285}, {"type": "node", "id": 6532359624, "lat": 17.2651172, "lon": 78.3888899}, {"type": "node", "id": 6532359626, "lat": 17.2649415, "lon": 78.3888369}, {"type": "node", "id": 6532359627, "lat": 17.2649042, "lon": 78.3889724}, {"type": "node", "id": 6532359628, "lat": 17.2650799, "lon": 78.3890254}, {"type": "node", "id": 6537086759, "lat": 17.2599543, "lon": 78.3840267, "tags": {"addr:district": "Ranga Reddy", "addr:full": "Road No.7, Madhura Nagar, Shamshabad.", "addr:postcode": "501218", "addr:state": "Telangana", "amenity": "hospital", "name": "Trident Hospital", "source": "OpenGovernmentData"}}, {"type": "node", "id": 6548867226, "lat": 17.2602591, "lon": 78.3846268, "tags": {"addr:city": "Hyderabad", "addr:full": "MADHURA NAGAR COLONY, NEAR ICICI BANK,SHAMSHABAD", "addr:postcode": "501218", "addr:state": "Telangana", "amenity": "hospital", "contact:phone": "8413225666; 9502288555", "name": "LIMS HOSPITAL", "operator:type": "Private", "source": "OpenGovernmentData"}}, {"type": "node", "id": 8141436209, "lat": 17.2651956, "lon": 78.3915395}, {"type": "node", "id": 8141436210, "lat": 17.2655864, "lon": 78.3911718}, {"type": "node", "id": 8141436211, "lat": 17.2654054, "lon": 78.3909609}, {"type": "node", "id": 10989310078, "lat": 17.256659, "lon": 78.3960705, "tags": {"addr:district": "Rangareddy", "addr:place": "Shamshabad", "addr:state": "Telangana", "addr:street": "SY. No. 137, Brundavan colony", "addr:subdistrict": "Shamshabad", "amenity": "doctors", "healthcare": "doctor", "name": "Govt. Unani Dispensary, Shamshabad", "operational_status": "operational", "operator:type": "government", "source": "OpenDataTelangana"}}, {"type": "way", "id": 695655536, "nodes": [6532359628, 6532359627, 6532359626, 6532359624, 6532359628], "tags": {"addr:district": "Ranga Reddy", "addr:full": "320-112/3/1, Beside Central Bank Of India, R. B Nagar,Shamshabad.", "addr:postcode": "501218", "addr:state": "Telangana", "amenity": "hospital", "building": "yes", "name": "Vijaya Lakshmi Hospital", "source": "OpenGovernmentData"}}, {"type": "way", "id": 874573425, "nodes": [6532251947, 8141436211, 8141436210, 8141436209, 6532251947], "tags": {"addr:district": "Ranga Reddy", "addr:full": "National Highway7, Shamshabad, Near RGI Airport.", "addr:postcode": "501218", "addr:state": "Telangana", "amenity": "hospital", "name": "Indira Hospital", "source": "OpenGovernmentData"}}]}